{
  "type": "FeatureCollection",
  "features": [
    {
      "type": "Feature",
      "properties": {
        "name": "Lagoa das Sete Cidades",
        "place_id": "51a4d7814540e35140596bd2b6ab76244940f00101f901e6e8110000000000c00208",
        "categories": ["tourism.attraction", "natural.lake"],
        "address_line1": "Sete Cidades",
        "address_line2": "9555 Sete Cidades, Portugal",
        "city": "Ponta Delgada",
        "county": "Ponta Delgada",
        "state": "Açores",
        "country": "Portugal",
        "country_code": "pt",
        "postcode": "9555",
        "lon": -25.7897,
        "lat": 37.8615,
        "formatted": "Lagoa das Sete Cidades, Sete Cidades, 9555 Ponta Delgada, Portugal",
        "distance": 1250
      },
      "geometry": {
        "type": "Point",
        "coordinates": [-25.7897, 37.8615]
      }
    },
    {
      "type": "Feature",
      "properties": {
        "name": "Lagoa do Fogo",
        "place_id": "51f4a2b5c3d7e25140596bd2b6ab76244940f00101f901e6e8120000000000c00309",
        "categories": ["tourism.attraction", "natural.lake"],
        "address_line1": "Agua de Pau",
        "address_line2": "9560 Lagoa, Portugal",
        "city": "Lagoa",
        "county": "Lagoa",
        "state": "Açores",
        "country": "Portugal",
        "country_code": "pt",
        "postcode": "9560",
        "lon": -25.4732,
        "lat": 37.7516,
        "formatted": "Lagoa do Fogo, Agua de Pau, 9560 Lagoa, Portugal",
        "distance": 8450
      },
      "geometry": {
        "type": "Point",
        "coordinates": [-25.4732, 37.7516]
      }
    },
    {
      "type": "Feature",
      "properties": {
        "name": "Miradouro da Boca do Inferno",
        "place_id": "51b8c9d6e4f8a35140596bd2b6ab76244940f00101f901e6e8130000000000c00410",
        "categories": ["tourism.viewpoint"],
        "address_line1": "Sete Cidades",
        "address_line2": "9555 Ponta Delgada, Portugal",
        "city": "Ponta Delgada",
        "county": "Ponta Delgada",
        "state": "Açores",
        "country": "Portugal",
        "country_code": "pt",
        "postcode": "9555",
        "lon": -25.7823,
        "lat": 37.8642,
        "formatted": "Miradouro da Boca do Inferno, Sete Cidades, 9555 Ponta Delgada, Portugal",
        "distance": 2100
      },
      "geometry": {
        "type": "Point",
        "coordinates": [-25.7823, 37.8642]
      }
    },
    {
      "type": "Feature",
      "properties": {
        "name": "Praia de Santa Bárbara",
        "place_id": "51c7d0e5f6g9b45140596bd2b6ab76244940f00101f901e6e8140000000000c00511",
        "categories": ["natural.beach", "tourism.attraction"],
        "address_line1": "Ribeira Grande",
        "address_line2": "9600 Ribeira Grande, Portugal",
        "city": "Ribeira Grande",
        "county": "Ribeira Grande",
        "state": "Açores",
        "country": "Portugal",
        "country_code": "pt",
        "postcode": "9600",
        "lon": -25.6245,
        "lat": 37.8201,
        "formatted": "Praia de Santa Bárbara, Ribeira Grande, 9600 Ribeira Grande, Portugal",
        "distance": 4780
      },
      "geometry": {
        "type": "Point",
        "coordinates": [-25.6245, 37.8201]
      }
    },
    {
      "type": "Feature",
      "properties": {
        "name": "Furnas",
        "place_id": "51d6e1f7g0h8c55140596bd2b6ab76244940f00101f901e6e8150000000000c00612",
        "categories": ["tourism.attraction", "natural.hot_spring"],
        "address_line1": "Furnas",
        "address_line2": "9675 Povoacao, Portugal",
        "city": "Povoação",
        "county": "Povoação",
        "state": "Açores",
        "country": "Portugal",
        "country_code": "pt",
        "postcode": "9675",
        "lon": -25.3153,
        "lat": 37.7714,
        "formatted": "Furnas, 9675 Povoacao, Portugal",
        "distance": 12350
      },
      "geometry": {
        "type": "Point",
        "coordinates": [-25.3153, 37.7714]
      }
    }
  ],
  "properties": {
    "query": {
      "categories": ["tourism.attraction"],
      "filter": "circle:-25.6756,37.7412,15000",
      "limit": 20
    },
    "count": 5
  }
}